Time,P (deg/s),Q (deg/s),R (deg/s),P dot (deg/s^2),Q dot (deg/s^2),R dot (deg/s^2),P_{inertial} (deg/s),Q_{inertial} (deg/s),R_{inertial} (deg/s),q bar (psf),Reynolds Number,V_{Total} (ft/s),V_{Inertial} (ft/s),UBody,VBody,WBody,UdotBody,VdotBody,WdotBody,UdotBody_i,VdotBody_i,WdotBody_i,BodyAccel_X,BodyAccel_Y,BodyAccel_Z,Aero V_{X Body} (ft/s),Aero V_{Y Body} (ft/s),Aero V_{Z Body} (ft/s),V_{X_{inertial}} (ft/s),V_{Y_{inertial}} (ft/s),V_{Z_{inertial}} (ft/s),V_{X_{ecef}} (ft/s),V_{Y_{ecef}} (ft/s),V_{Z_{ecef}} (ft/s),V_{North} (ft/s),V_{East} (ft/s),V_{Down} (ft/s),Rho (slugs/ft^3),Absolute Viscosity,Kinematic Viscosity,Temperature (R),P_{SL} (psf),P_{Ambient} (psf),Turbulence Magnitude (ft/sec),Turbulence X Direction (deg),Wind V_{North} (ft/s),Wind V_{East} (ft/s),Wind V_{Down} (ft/s),Roll Turbulence (deg/sec),Pitch Turbulence (deg/sec),Yaw Turbulence (deg/sec),I_{xx},I_{xy},I_{xz},I_{yx},I_{yy},I_{yz},I_{zx},I_{zy},I_{zz},Mass,Weight,X_{cg},Y_{cg},Z_{cg},Altitude ASL (ft),Altitude AGL (ft),Phi (deg),Theta (deg),Psi (deg),Q(1)_{LOCAL},Q(2)_{LOCAL},Q(3)_{LOCAL},Q(4)_{LOCAL},Q(1)_{ECEF},Q(2)_{ECEF},Q(3)_{ECEF},Q(4)_{ECEF},Q(1)_{ECI},Q(2)_{ECI},Q(3)_{ECI},Q(4)_{ECI},Alpha (deg),Beta (deg),Latitude (deg),Latitude Geodetic (deg),Longitude (deg),X_{ECI} (ft),Y_{ECI} (ft),Z_{ECI} (ft),X_{ECEF} (ft),Y_{ECEF} (ft),Z_{ECEF} (ft),Earth Position Angle (deg),Distance AGL (ft),Terrain Elevation (ft),/fdm/jsbsim/sensor/imu/accelX_true_fps2,/fdm/jsbsim/sensor/imu/accelY_true_fps2,/fdm/jsbsim/sensor/imu/accelZ_true_fps2,/fdm/jsbsim/sensor/imu/gyroX_true_rps,/fdm/jsbsim/sensor/imu/gyroY_true_rps,/fdm/jsbsim/sensor/imu/gyroZ_true_rps,/fdm/jsbsim/sensor/imu/gyroX_true_rps,/fdm/jsbsim/sensor/imu/gyroY_true_rps,/fdm/jsbsim/sensor/imu/gyroZ_true_rps,/fdm/jsbsim/sensor/gps/lat_true_rad,/fdm/jsbsim/sensor/gps/long_true_rad,/fdm/jsbsim/sensor/gps/alt_true_m,/fdm/jsbsim/sensor/gps/vNorth_true_mps,/fdm/jsbsim/sensor/gps/vEast_true_mps,/fdm/jsbsim/sensor/gps/vDown_true_mps,/fdm/jsbsim/sensor/pitot/presStatic_true_pa,/fdm/jsbsim/sensor/pitot/presTip_true_pa,/fdm/jsbsim/sensor/pitot/temp_true_C
0,0,0,0,0.001001726113626,24948.4120005483,0.00512935110501,3.91381377204718E-19,-0.002968449199998,-0.002940172240113,0,0,0,1084.14125128,0,0,0,-0.000238542258174,0.107835372233393,-2772.2359651221,-105.686644066646,-1966.78486756613,1950.78662223232,-0.000238542258175,1.52216022248517E-13,-2804.30104985236,0,0,0,1082.57939478411,-58.1730754815681,0,0,0,0,0,0,0,0.002376911753,3.737213588E-07,0.0001572297997,518.67,2116.228,2116.228,0,0,0,0,0,0,0,0,0.05273832175,0,-0.01032494063,0,0.06369013378,0,-0.01032494063,0,0.1133088485,0.1342341375,4.318855716,8.7401574936,0,1.8110236248,0,0,-2.98147456113466E-16,2.08726855498417E-15,90,0.707106781186548,-1.47196168001604E-17,1.10400772284331E-17,0.707106781186547,-0.384754380473224,0.92262871571208,-0.024771144364242,0.010330056003211,-0.384754380473224,0.92262871571208,-0.024771144364242,0.010330056003211,0,0,44.725801,44.917901276915,-93.075866,-797753.127612059,-14845890.3182973,14725685.2045231,-797753.127612059,-14845890.3182973,14725685.2045231,0,0,0,65.7145545238477,6.25663634977007E-05,-3121.44635553998,6.83089366321221E-21,-5.18092122181524E-05,-5.13156861657033E-05,6.83089366321221E-21,-5.18092122181524E-05,-5.13156861657033E-05,0.78396527036794,-1.62448031584504,0,0,0,0,101325.54685928,0,15
0.02,0.073191340129706,3.49279340857874E-05,0.014761701795346,-1.49688194441936,0.017980464851169,-0.301653484913333,0.073772658342722,-0.002933521256987,0.011879570294228,3.408057958E-10,2.79350444,0.000535508445679,1084.14128491,-1.8796440903581E-06,0.000535504530438,-8.12534147705713E-07,7.70573792662391E-05,0.053816128920622,0.000128636036482,0.002315033245076,0.041200021601955,-0.038313932165593,6.33984758063399,-0.054019140167176,-31.4319694221766,-1.8796440903581E-06,0.000535504530438,-8.12534147705713E-07,1082.57947175707,-58.1722697428539,-0.000380167699519,-2.22371952945118E-05,-0.000376493456491,-0.00038016769952,-0.000535504530414,-2.00319576279855E-06,-4.24860696805073E-07,0.00237686392,3.737199857E-07,0.0001572323861,518.6675475,2116.228,2116.175407,0,0,0,0,0,0,0,0,0.05273832175,0,-0.01032494063,0,0.06369013378,0,-0.01032494063,0,0.1133088485,0.1342341375,4.318855716,8.7401574936,0,1.8110236248,0.68772320449352,0.68772320449352,-1.77457870163387E-07,11.4034117198576,90.000000628463,0.703608445958617,-0.070250618500058,0.070250615550264,0.703608453893903,-0.380389851869529,0.91703782997597,-0.062873704480289,0.101941533599642,-0.380389907622171,0.917037864362018,-0.06287320294438,0.101941325561134,0,0,44.725800999967,44.917901270569,-93.075866,-797736.915138791,-14845891.6788045,14725685.6884755,-797753.153830724,-14845890.8062172,14725685.6884755,6.2671111983606E-05,0.68772320449352,0,6.33988802845386,-0.145315073080189,-31.4347397855734,0.001287575786029,-5.11996046116721E-05,0.000207337615356,0.001287575786029,-5.11996046116721E-05,0.000207337615356,0.783965270257172,-1.62448031584504,0.209618032729626,-0.00016322178087,-6.10574068500998E-07,-1.29497540386186E-07,101323.028692068,6.62036768188874E-08,14.9986374828305
0.04,0.081919896832096,0.000126009980751,0.01652286806325,-1.05155167222822,0.001055337175431,-0.212032314804479,0.082501199327776,-0.002842518428745,0.013640814984864,1.076267489E-09,4.964276822,0.000951640572544,1084.14128534,-2.16410601566417E-06,0.000951634078046,2.77082289830362E-06,2.76741064188351E-05,-0.002583764102915,-0.000139520772617,0.004333672792288,0.080658602266291,0.001934889516774,6.3397985755467,-0.111282992948551,-31.4322338242105,-2.16410601566417E-06,0.000951634078046,2.77082289830362E-06,1082.57954145025,-58.170980771533,-0.000678349968203,-3.73842228908976E-05,-0.000666380911963,-0.000678349968265,-0.000951633993024,-1.57356091612924E-06,3.16964074415844E-06,0.00237686392,3.737199857E-07,0.0001572323861,518.6675475,2116.228,2116.175407,0,0,0,0,0,0,0,0,0.05273832175,0,-0.01032494063,0,0.06369013378,0,-0.01032494063,0,0.1133088485,0.1342341375,4.318855716,8.7401574936,0,1.8110236248,0.68772324547172,0.68772324547172,0.001574675983459,11.4034136296148,90.0003119973359,0.703607498356528,-0.07024115130563,0.070260106232611,0.703609399054703,-0.380402232684974,0.917032637325643,-0.06287480719432,0.101941366013993,-0.380402362771493,0.917032717566971,-0.062873636950035,0.101940880574268,0,0,44.725800999922,44.917901270524,-93.075866,-797715.26354872,-14845892.8422381,14725685.6884638,-797753.153831381,-14845890.8062288,14725685.6884638,0.000146232594628,0.68772324547172,0,6.33973565092707,-0.112073095673243,-31.4321064391337,0.001439917565114,-4.96113056302085E-05,0.000238077134141,0.001439917565114,-4.96113056302085E-05,0.000238077134141,0.783965270256388,-1.62448031584505,0.209618045219779,-0.000290058041074,-4.79621367236192E-07,9.66106498819491E-07,101323.028691917,5.93111935676312E-08,14.9986374827492
0.06,0.058093537669807,0.000102459136331,0.011716998626452,-1.59577694521296,-0.002488446805018,-0.321816106412892,0.058674824819736,-0.00286614677015,0.008835022276971,5.858938177E-10,3.662733645,0.000702137706605,1084.14128568,-1.43782020867009E-06,0.000702135629535,9.21655019308026E-07,3.7955437750909E-05,-0.017699346435834,-3.97493432171435E-05,0.004937606658992,0.091345598118022,0.012607935578866,6.33980975704478,-0.127243775277856,-31.4321316134516,-1.43782020867009E-06,0.000702135629535,9.21655019308026E-07,1082.57963597995,-58.1692279879152,-0.000499717306326,-2.76914316827436E-05,-0.00049245624923,-0.000499717306415,-0.00070213556528,-1.22721904769726E-06,1.2251643857327E-06,0.00237686392,3.737199857E-07,0.0001572323861,518.6675475,2116.228,2116.175407,0,0,0,0,0,0,0,0,0.05273832175,0,-0.01032494063,0,0.06369013378,0,-0.01032494063,0,0.1133088485,0.1342341375,4.318855716,8.7401574936,0,1.8110236248,0.68772320076823,0.68772320076823,0.003115349000301,11.4034161019244,90.0006166068976,0.703606570830885,-0.070231893331489,0.070269394677298,0.703610323193627,-0.380414344386644,0.917027556669924,-0.062875887984083,0.101941206951372,-0.380414548806726,0.917027682767331,-0.062874049038757,0.10194044409289,0,0,44.725800999876,44.917901270478,-93.075866,-797693.611956956,-14845894.0056404,14725685.6884519,-797753.153832042,-14845890.8062405,14725685.6884519,0.000229794077273,0.68772320076823,0,6.33979755107246,-0.125877450492016,-31.4321156028128,0.001024068881135,-5.00236979845173E-05,0.00015420022822,0.001024068881135,-5.00236979845173E-05,0.00015420022822,0.783965270255587,-1.62448031584505,0.209618031594157,-0.000214010920297,-3.74056365738126E-07,3.73430104771328E-07,101323.028692081,3.59119024672724E-08,14.9986374828378
0.08,0.026936779527789,4.95133502931062E-05,0.005433474946333,-1.38773276054123,-0.002652139089933,-0.279967424549154,0.027518057104869,-0.002919140924303,0.002551546488762,1.30167568E-10,1.726423248,0.000330951408733,1084.14128632,-6.71473113907366E-07,0.000330950562769,3.30255737361591E-07,3.50389877217307E-05,-0.017215157947416,-1.41187023873037E-05,0.004922308085633,0.091022897106652,0.012246422972796,6.33980746704916,-0.127287113415415,-31.4321045929996,-6.71473113907366E-07,0.000330950562769,3.30255737361591E-07,1082.57973543417,-58.1673888596946,-0.000235472099625,-1.30705024912797E-05,-0.000232187181397,-0.000235472099675,-0.000330950530152,-5.92924811717345E-07,4.79581443671073E-07,0.00237686392,3.737199857E-07,0.0001572323861,518.6675475,2116.228,2116.175407,0,0,0,0,0,0,0,0,0.05273832175,0,-0.01032494063,0,0.06369013378,0,-0.01032494063,0,0.1133088485,0.1342341375,4.318855716,8.7401574936,0,1.8110236248,0.68772318214178,0.68772318214178,0.004076949095497,11.4034177467165,90.0008067275849,0.703605991787395,-0.07022611567711,0.070275192637078,0.703610899862724,-0.380421903724321,0.917024385436934,-0.062876562900864,0.101941108510036,-0.380422182479178,0.91702455738683,-0.062874055256896,0.101940068227925,0,0,44.725800999848,44.91790127045,-93.075866,-797671.960363239,-14845895.1690065,14725685.6884446,-797753.153832447,-14845890.8062477,14725685.6884446,0.000313355559918,0.68772318214178,0,6.339802218592,-0.128117913976292,-31.4320808953426,0.000480280700232,-5.09486204588023E-05,4.45328872466003E-05,0.000480280700232,-5.09486204588023E-05,4.45328872466003E-05,0.783965270255096,-1.62448031584505,0.209618025916815,-0.00010087372159,-1.80723482611447E-07,1.46176424030943E-07,101323.028692149,1.00900628319047E-08,14.9986374828747
0.1,0.003350678747542,4.83229149358914E-06,0.000675940323341,-0.806422080576716,-0.001554234440687,-0.162651271492311,0.003931952759939,-0.002963839991433,-0.002205970302866,2.447974754E-12,0.2367551024,4.53854144792E-05,1084.14128685,-8.06432735147287E-08,4.53852500147272E-05,9.17889638467174E-08,2.06933881127253E-05,-0.010744873326746,-5.30687170283381E-06,0.004666002853034,0.086485193868129,0.007641162414762,6.3397933257437,-0.121013239108378,-31.4320952107381,-8.06432735147287E-08,4.53852500147272E-05,9.17889638467174E-08,1082.57983156457,-58.1656096245907,-3.23223889518765E-05,-1.77039651493221E-06,-3.18113928658858E-05,-3.23223889590107E-05,-4.53852418513997E-05,-6.09037145521481E-08,1.093651356888E-07,0.00237686392,3.737199857E-07,0.0001572323861,518.6675475,2116.228,2116.175407,0,0,0,0,0,0,0,0,0.05273832175,0,-0.01032494063,0,0.06369013378,0,-0.01032494063,0,0.1133088485,0.1342341375,4.318855716,8.7401574936,0,1.8110236248,0.68772317841649,0.68772317841649,0.0044349746352,11.4034183532779,90.0008775179035,0.703605776160987,-0.070223964495782,0.070277351314601,0.703611114584259,-0.380424718229619,0.917023204702816,-0.062876814201675,0.101941071802929,-0.380425071319955,0.917023422502214,-0.062873637856899,0.101939754102768,0,0,44.725800999838,44.91790127044,-93.075866,-797650.30876756,-14845896.3323363,14725685.6884421,-797753.153832586,-14845890.8062502,14725685.6884421,0.000396917042563,0.68772317841649,0,6.33979579708683,-0.122733168638221,-31.43208737378,6.86255216938199E-05,-5.17287663527841E-05,-3.85014449862364E-05,6.86255216938199E-05,-5.17287663527841E-05,-3.85014449862364E-05,0.783965270254928,-1.62448031584505,0.209618024781346,-1.38334217163066E-05,-1.85634521954948E-08,3.33344933579463E-08,101323.028692163,6.13211357280188E-10,14.9986374828821
0.12,-0.008404434220201,-1.81596383541804E-05,-0.00169503051728,-0.257244466407968,-0.00063243571608,-0.051888192987963,-0.007823159805676,-0.00298682987923,-0.004576943165907,1.158814242E-11,0.5151133342,9.87460542188E-05,1084.14128713,2.07223343245616E-07,-9.87458177342879E-05,6.13372029751626E-08,9.03040776338655E-06,-0.003981955832198,-3.63617200015683E-06,0.004399617528487,0.081736659374357,0.002833080304675,6.33978160171241,-0.114228049633845,-31.4320936181457,2.07223343245616E-07,-9.87458177342879E-05,6.13372029751626E-08,1082.57992210704,-58.1639295682107,7.01489361710241E-05,3.94404720801927E-06,6.93855494282061E-05,7.01489361865455E-05,9.87458189037823E-05,2.15261097172448E-07,1.1731096295694E-08,0.00237686392,3.737199857E-07,0.0001572323861,518.6675475,2116.228,2116.175407,0,0,0,0,0,0,0,0,0.05273832175,0,-0.01032494063,0,0.06369013378,0,-0.01032494063,0,0.1133088485,0.1342341375,4.318855716,8.7401574936,0,1.8110236248,0.6877231746912,0.6877231746912,0.004394376264782,11.403418245779,90.0008694933921,0.703605800619263,-0.070224208193217,0.070277106291427,0.703611090277184,-0.380424399097902,0.917023338627794,-0.062876785599167,0.101941075645963,-0.380424826523779,0.917023602275045,-0.062872940549785,0.101939480536772,0,0,44.725800999841,44.917901270442,-93.075866,-797628.657170014,-14845897.4956316,14725685.6884426,-797753.153832555,-14845890.8062497,14725685.6884426,0.000480478525208,0.6877231746912,0,6.33978149523272,-0.115745230933898,-31.4320750395016,-0.000136539896519,-5.21300155895125E-05,-7.98827279217226E-05,-0.000136539896519,-5.21300155895125E-05,-7.98827279217226E-05,0.783965270254964,-1.62448031584505,0.209618023645878,3.00977256018728E-05,6.56115824181621E-08,3.57563815092754E-09,101323.028692177,3.23249497555891E-10,14.9986374828895
0.14,-0.010642172916163,-2.35922790217835E-05,-0.002146418572984,0.080859754887927,0.000279144185715,0.016305504785043,-0.01006089647146,-0.00299225224092,-0.005028341400515,1.939002658E-11,0.6663234263,0.000127732684857,1084.14128719,2.73937477718226E-07,-0.000127732387933,2.8492921498981E-08,-7.03322157033291E-07,0.000474887706318,-4.33989085609223E-06,0.004221628770808,0.078606474871169,-0.000334539720712,6.33977170076373,-0.109659096787797,-31.4320947390155,2.73937477718226E-07,-0.000127732387933,2.8492921498981E-08,1082.58000808473,-58.1623303763754,9.07765474733959E-05,5.09560446150761E-06,8.97178467455876E-05,9.07765474936456E-05,0.000127732385736,2.74164757472804E-07,-3.53879422013685E-08,0.00237686392,3.737199857E-07,0.0001572323861,518.6675475,2116.228,2116.175407,0,0,0,0,0,0,0,0,0.05273832175,0,-0.01032494063,0,0.06369013378,0,-0.01032494063,0,0.1133088485,0.1342341375,4.318855716,8.7401574936,0,1.8110236248,0.68772317841649,0.68772317841649,0.004190018514055,11.4034178138002,90.000829090724,0.703605923727361,-0.070225435543676,0.070275873608648,0.703610967793355,-0.380422792648872,0.917024012658282,-0.062876641905337,0.101941095898417,-0.380423294410138,0.917024322152377,-0.062872128148456,0.101939223386934,0,0,44.725800999847,44.917901270449,-93.075866,-797607.005570706,-14845898.6588941,14725685.6884443,-797753.153832459,-14845890.806248,14725685.6884443,0.000564040007852,0.68772317841649,0,6.33977390903762,-0.110539021345032,-31.4320983413047,-0.000175595769129,-5.22246536542278E-05,-8.77611133533364E-05,-0.000175595769129,-5.22246536542278E-05,-8.77611133533364E-05,0.783965270255079,-1.62448031584505,0.209618024781346,3.89328311722469E-05,8.35654180777106E-08,-1.07862447829771E-08,101323.028692163,9.38754285419986E-10,14.9986374828821
0.16,-0.007820261377562,-1.58450776964997E-05,-0.001576918619878,0.203114972556762,0.000311783260567,0.040937341782146,-0.007238982904099,-0.002984494769433,-0.004458851617444,1.068213816E-11,0.4945668188,9.48073339579E-05,1084.14128711,2.05002710708913E-07,-9.48071122525314E-05,-3.52614071172749E-09,-6.61940210278657E-06,0.002299026652246,3.70363969270837E-06,0.004148798852373,0.077331385191631,-0.001637008684493,6.33976563417537,-0.107722945071059,-31.4320871293819,2.05002710708913E-07,-9.48071122525314E-05,-3.52614071172749E-09,1082.58009159137,-58.1607746600839,6.73943116736001E-05,3.77797083112633E-06,6.65745015950437E-05,6.73943116887553E-05,9.48071090407023E-05,2.00259762443595E-07,-5.04539626034949E-08,0.00237686392,3.737199857E-07,0.0001572323861,518.6675475,2116.228,2116.175407,0,0,0,0,0,0,0,0,0.05273832175,0,-0.01032494063,0,0.06369013378,0,-0.01032494063,0,0.1133088485,0.1342341375,4.318855716,8.7401574936,0,1.8110236248,0.68772318214178,0.68772318214178,0.003985836774963,11.4034173936985,90.0007887277293,0.703606046690217,-0.070226661911317,0.070274642055872,0.703610845435653,-0.380421187572446,0.917024686095652,-0.062876498412822,0.101941116209934,-0.380421763668929,0.917025041435894,-0.062871315947429,0.10193896629844,0,0,44.725800999853,44.917901270455,-93.075866,-797585.353969708,-14845899.8221251,14725685.688446,-797753.153832368,-14845890.8062464,14725685.688446,0.000647601490497,0.68772318214178,0,6.33977007377161,-0.10800523517821,-31.4320934711669,-0.000126344086172,-5.2089260235159E-05,-7.78216415822723E-05,-0.000126344086172,-5.2089260235159E-05,-7.78216415822723E-05,0.783965270255188,-1.62448031584505,0.209618025916815,2.88972068356061E-05,6.10391755928078E-08,-1.53783678015452E-08,101323.028692149,6.39585592257925E-10,14.9986374828747
0.18,-0.003743864593988,-7.97717255493563E-06,-0.000755717953552,0.184300605913307,0.000258827854865,0.037264759355451,-0.003162584821546,-0.002976620289321,-0.003637657461915,2.515266833E-12,0.239987108,4.60049825953E-05,1084.14128702,9.68627647188505E-08,-4.60048307875178E-05,6.77156682699645E-08,-4.95830897874453E-06,0.002288137203504,-3.86395718250001E-06,0.004148938140021,0.077333528242507,-0.001623809603478,6.33976720487521,-0.107662123994648,-31.4320949765005,9.68627647188505E-08,-4.60048307875178E-05,6.77156682699645E-08,1082.58017448264,-58.1592300216604,3.26545369499001E-05,1.84701407393754E-06,3.23531788112033E-05,3.26545369572731E-05,4.60048338063305E-05,1.08339632985693E-07,4.41933113730091E-08,0.00237686392,3.737199857E-07,0.0001572323861,518.6675475,2116.228,2116.175407,0,0,0,0,0,0,0,0,0.05273832175,0,-0.01032494063,0,0.06369013378,0,-0.01032494063,0,0.1133088485,0.1342341375,4.318855716,8.7401574936,0,1.8110236248,0.68772318214178,0.68772318214178,0.003855119746667,11.4034171294442,90.0007628887154,0.70360612539858,-0.070227447061155,0.070273853644857,0.703610767106522,-0.380420159999253,0.917025117224267,-0.062876406575532,0.10194112924683,-0.380420810430758,0.917025518410228,-0.06287055540216,0.101938701933934,0,0,44.725800999857,44.917901270459,-93.075866,-797563.702367047,-14845900.9853251,14725685.688447,-797753.153832313,-14845890.8062454,14725685.688447,0.000731162973142,0.68772318214178,0,6.33976842839706,-0.107578090337768,-31.4320861030861,-5.5197518009577E-05,-5.19518246303204E-05,-6.34890997701649E-05,-5.5197518009577E-05,-5.19518246303204E-05,-6.34890997701649E-05,0.783965270255255,-1.62448031584505,0.209618025916815,1.40222733441695E-05,3.30219201340392E-08,1.34701213064932E-08,101323.028692149,1.90598548865252E-10,14.9986374828747
0.2,-0.000577495929439,-1.22439336128346E-06,-0.000116715037063,0.110170656755663,8.27763672096414E-05,0.022221059075029,3.7843484786938E-06,-0.002969864951762,-0.002998657078806,6.962871305E-14,0.03992914991,7.65432719436E-06,1084.14128693,2.0428253890261E-08,-7.65429575022394E-06,-8.00329991746328E-09,-3.28015916596942E-06,0.001463809955527,7.44890192209177E-06,0.004184231684772,0.077920172860358,-0.001045668003441,6.33976884581169,-0.108458548240255,-31.4320837718041,2.0428253890261E-08,-7.65429575022394E-06,-8.00329991746328E-09,1082.58025776257,-58.1576781460664,5.44695753887083E-06,3.06970779118708E-07,5.36890559691626E-06,5.44695754010272E-06,7.65429496115909E-06,1.84426980417212E-08,-1.23824867003872E-08,0.00237686392,3.737199857E-07,0.0001572323861,518.6675475,2116.228,2116.175407,0,0,0,0,0,0,0,0,0.05273832175,0,-0.01032494063,0,0.06369013378,0,-0.01032494063,0,0.1133088485,0.1342341375,4.318855716,8.7401574936,0,1.8110236248,0.68772318214178,0.68772318214178,0.003804256952102,11.4034170196484,90.0007528269973,0.703606156075179,-0.070227752520353,0.070273546831229,0.703610736585545,-0.380419760173334,0.917025284984028,-0.062876370757011,0.101941134289407,-0.380420484939637,0.917025732015447,-0.062869850876875,0.101938429572093,0,0,44.725800999859,44.91790127046,-93.075866,-797542.050762726,-14845902.1484942,14725685.6884473,-797753.153832292,-14845890.806245,14725685.6884473,0.000814724455787,0.68772318214178,0,6.33976976181839,-0.108241800230812,-31.4320965817337,6.60493409960452E-08,-5.1833921747835E-05,-5.23364391633965E-05,6.60493409960452E-08,-5.1833921747835E-05,-5.23364391633965E-05,0.78396527025528,-1.62448031584505,0.209618025916815,2.33302910416129E-06,5.62133436311663E-09,-3.77418194627802E-09,101323.028692149,1.37532946218372E-11,14.9986374828747
0.22,0.00104930658082,1.6118003345725E-06,0.000211406130307,0.037043056535855,0.000193698471433,0.007476543169715,0.001630586827011,-0.00296702891626,-0.002670535754883,1.791208712E-13,0.06404260316,1.22768213209E-05,1084.14128689,-3.40329028576032E-08,1.22765899211362E-05,6.72563314499764E-08,-1.87151091020002E-06,0.00056635548058,-1.75438375265937E-06,0.004217203292258,0.078544205192481,-0.0004014569817,6.33977025108021,-0.109357728057413,-31.4320929695925,-3.40329028576032E-08,1.22765899211362E-05,6.72563314499764E-08,1082.58034179236,-58.1561132285516,-8.7739937169723E-06,-4.80798956382096E-07,-8.57357617110146E-06,-8.77399371895901E-06,-1.22765851633452E-05,-2.00635751465289E-08,7.34571885792684E-08,0.00237686392,3.737199857E-07,0.0001572323861,518.6675475,2116.228,2116.175407,0,0,0,0,0,0,0,0,0.05273832175,0,-0.01032494063,0,0.06369013378,0,-0.01032494063,0,0.1133088485,0.1342341375,4.318855716,8.7401574936,0,1.8110236248,0.68772318214178,0.68772318214178,0.003807401985168,11.4034170119769,90.0007534440968,0.703606154218281,-0.070227733540794,0.070273565716942,0.703610738450665,-0.380419784907602,0.917025274623145,-0.062876372883304,0.101941133878849,-0.380420584008468,0.917025767499774,-0.062869184297521,0.10193815175432,0,0,44.725800999858,44.91790127046,-93.075866,-797520.399156732,-14845903.3116322,14725685.6884473,-797753.153832295,-14845890.8062451,14725685.6884473,0.000898285938432,0.68772318214178,0,6.33976960707464,-0.109157406309431,-31.432090218003,2.84591088709933E-05,-5.17844235906179E-05,-4.66096417149429E-05,2.84591088709933E-05,-5.17844235906179E-05,-4.66096417149429E-05,0.783965270255276,-1.62448031584505,0.209618025916815,-3.74190315778762E-06,-6.11537770466202E-09,2.2389751078961E-08,101323.028692149,4.60777053178839E-12,14.9986374828747
0.24,0.001397702877923,3.90672538795135E-06,0.000281768177121,-0.008891780186829,8.48117781227703E-05,-0.001789579647672,0.001978982864128,-0.0029647353081,-0.002600172403998,3.342169871E-13,0.08748027508,1.67697697056E-05,1084.14128686,-5.75546221900537E-08,1.67696306270875E-05,3.67705646787993E-08,5.19376938145495E-07,-4.08547833545964E-05,-5.4415421734974E-06,0.004241465282611,0.078967884538451,3.28590521229827E-05,6.33977266231996,-0.109979301101163,-31.4320966022293,-5.75546221900537E-08,1.67696306270875E-05,3.67705646787993E-08,1082.58042640784,-58.1545375418176,-1.1948676520989E-05,-6.80450133333994E-07,-1.17469695236579E-05,-1.1948676523698E-05,-1.67696274819058E-05,-4.91485299385102E-08,4.85240331089524E-08,0.00237686392,3.737199857E-07,0.0001572323861,518.6675475,2116.228,2116.175407,0,0,0,0,0,0,0,0,0.05273832175,0,-0.01032494063,0,0.06369013378,0,-0.01032494063,0,0.1133088485,0.1342341375,4.318855716,8.7401574936,0,1.8110236248,0.68772318214178,0.68772318214178,0.003833583089391,11.4034170657087,90.0007586165159,0.703606138471052,-0.070227576287543,0.070273723633151,0.703610754121403,-0.380419990720302,0.917025188272294,-0.062876391257212,0.101941131283597,-0.38042086415551,0.917025726993789,-0.062868533966416,0.101937871750211,0,0,44.725800999858,44.917901270459,-93.075866,-797498.74754905,-14845904.4747387,14725685.688447,-797753.153832307,-14845890.8062453,14725685.688447,0.000981847421077,0.68772318214178,0,6.33977118172769,-0.109854558348798,-31.4320947200805,3.45397668195781E-05,-5.17443925764744E-05,-4.53815695692531E-05,3.45397668195781E-05,-5.17443925764744E-05,-4.53815695692531E-05,0.783965270255261,-1.62448031584505,0.209618025916815,-5.11138245648488E-06,-1.49804719252579E-08,1.47901252916087E-08,101323.028692149,1.5889014829856E-11,14.9986374828747
0.26,0.001053320026242,2.95533443687141E-06,0.000211569863899,-0.026479655362062,0.000175341070358,-0.005304485108141,0.001634599744771,-0.002965688059477,-0.002670369369857,1.921304332E-13,0.06632755082,1.27148405899E-05,1084.14128688,-3.44049893638202E-08,1.27147933556591E-05,-4.17698582866308E-09,7.64843872283596E-07,-0.000293013578873,-1.53662386404697E-05,0.004248775494808,0.079138226461891,0.00021890534363,6.33977293895389,-0.110246297476374,-31.4321064689251,-3.44049893638202E-08,1.27147933556591E-05,-4.17698582866308E-09,1082.58051138654,-58.1529558649167,-9.03613655477094E-06,-5.14478263929922E-07,-8.93032583429748E-06,-9.03613655682228E-06,-1.27147931501134E-05,-3.4551815750078E-08,3.54769990147194E-09,0.00237686392,3.737199857E-07,0.0001572323861,518.6675475,2116.228,2116.175407,0,0,0,0,0,0,0,0,0.05273832175,0,-0.01032494063,0,0.06369013378,0,-0.01032494063,0,0.1133088485,0.1342341375,4.318855716,8.7401574936,0,1.8110236248,0.68772317841649,0.68772317841649,0.003860629673328,11.4034171411693,90.000763961881,0.703606122178963,-0.070227413959631,0.070273886890983,0.703610770309929,-0.380420203324276,0.917025099049339,-0.062876410320459,0.101941128755657,-0.380421151093619,0.917025683615245,-0.062867884324768,0.101937591812996,0,0,44.725800999857,44.917901270459,-93.075866,-797477.095939673,-14845905.6378136,14725685.6884468,-797753.15383232,-14845890.8062455,14725685.6884468,0.001065408903721,0.68772317841649,0,6.33977298327612,-0.110213249305386,-31.4320909657511,2.85291474985042E-05,-5.17610212249534E-05,-4.66067377484058E-05,2.85291474985042E-05,-5.17610212249534E-05,-4.66067377484058E-05,0.783965270255247,-1.62448031584505,0.209618024781346,-3.87546895215457E-06,-1.05313934406238E-08,1.08133892996865E-09,101323.028692163,1.14394388830761E-11,14.9986374828821
0.28,0.000519249865802,1.75051041408949E-06,0.000104883433531,-0.024496426663799,-0.000228623930937,-0.004938402326552,0.001100529410031,-0.002966893775784,-0.002777054916252,4.835973149E-14,0.03327651374,6.37903197596E-06,1084.1412869,-2.54578408522198E-08,6.37869657103685E-06,6.0256976732046E-08,7.79372011727368E-08,-0.000302817402287,5.43046564264252E-06,0.00425324510541,0.079159497240148,0.000211430790548,6.33977228131668,-0.110265833068265,-31.4320856324581,-2.54578408522198E-08,6.37869657103685E-06,6.0256976732046E-08,1082.58059645997,-58.151372510043,-4.577356823636E-06,-2.51422811941665E-07,-4.43583588839078E-06,-4.5773568246764E-06,-6.37869230421755E-06,-1.3041602845419E-08,6.45241367472793E-08,0.00237686392,3.737199857E-07,0.0001572323861,518.6675475,2116.228,2116.175407,0,0,0,0,0,0,0,0,0.05273832175,0,-0.01032494063,0,0.06369013378,0,-0.01032494063,0,0.1133088485,0.1342341375,4.318855716,8.7401574936,0,1.8110236248,0.68772318214178,0.68772318214178,0.003878369158629,11.4034172073957,90.0007674594891,0.703606111534177,-0.0702273075886,0.070273994077426,0.703610780866261,-0.380420342765064,0.917025040513333,-0.062876422812412,0.101941127259579,-0.380421364868347,0.917025670923124,-0.062867228111615,0.101937312908013,0,0,44.725800999856,44.917901270458,-93.075866,-797455.444328595,-14845906.8008569,14725685.6884467,-797753.153832328,-14845890.8062457,14725685.6884467,0.001148970386366,0.68772318214178,0,6.33977150145008,-0.110273092058398,-31.432070823855,1.92078617200745E-05,-5.178206494436E-05,-4.8468751797286E-05,1.92078617200745E-05,-5.178206494436E-05,-4.8468751797286E-05,0.783965270255237,-1.62448031584505,0.209618025916815,-1.94422541432551E-06,-3.9750805472837E-09,1.96669568805707E-08,101323.028692149,3.58440442104312E-12,14.9986374828747
0.3,9.56169160334113E-05,4.19506433915898E-07,1.96689149005976E-05,-0.015488010947967,-0.000103673959809,-0.003098092313393,0.000676896388683,-0.002968225141509,-0.002862269076692,1.84365716E-15,0.006497345516,1.2455263531E-06,1084.1412869,-1.38830038190704E-08,1.2452913120626E-06,1.98168256758263E-08,1.68114296218624E-06,-0.000200630885219,2.66639818129996E-06,0.004250180605655,0.079085499286541,0.000140953971868,6.33977389131414,-0.11016759194451,-31.4320883814148,-1.38830038190704E-08,1.2452913120626E-06,1.98168256758263E-08,1082.58068146362,-58.1497900724586,-9.00416803695583E-07,-5.58507615407567E-08,-8.5875850407171E-07,-9.00416803900482E-07,-1.24528983551015E-06,-9.69085932007042E-09,2.22533019406389E-08,0.00237686392,3.737199857E-07,0.0001572323861,518.6675475,2116.228,2116.175407,0,0,0,0,0,0,0,0,0.05273832175,0,-0.01032494063,0,0.06369013378,0,-0.01032494063,0,0.1133088485,0.1342341375,4.318855716,8.7401574936,0,1.8110236248,0.68772318214178,0.68772318214178,0.003885560992991,11.4034172254896,90.0007688868235,0.703606107166578,-0.07022726441628,0.07027403747281,0.703610785208781,-0.380420399294479,0.917025016790937,-0.062876427922816,0.101941126551519,-0.380421495731506,0.917025693044063,-0.062866564516593,0.101937034791681,0,0,44.725800999856,44.917901270458,-93.075866,-797433.792715815,-14845907.9638685,14725685.6884466,-797753.15383233,-14845890.8062457,14725685.6884466,0.001232531869011,0.68772318214178,0,6.33977239265689,-0.110195020656646,-31.4320943182732,1.18140706773737E-05,-5.18053016598075E-05,-4.99560194662936E-05,1.18140706773737E-05,-5.18053016598075E-05,-4.99560194662936E-05,0.783965270255234,-1.62448031584505,0.209618025916815,-3.79564341863494E-07,-2.95377392075746E-09,6.78280643150673E-09,101323.028692149,3.09999480441763E-13,14.9986374828747
0.32,-0.000130700508494,2.46028191813755E-08,-2.59031797552036E-05,-0.005468446602341,-2.84596264175758E-05,-0.001102231512583,0.000450578964962,-0.00296862003888,-0.002907841177617,2.718511909E-15,0.007889718352,1.51244105802E-06,1084.14128691,5.41493289503731E-10,-1.51234124662423E-06,-1.73670528846788E-08,8.3184183998667E-07,-8.10382249148423E-05,2.39659948085845E-07,0.004244156684078,0.078999974891568,5.75356189213561E-05,6.33977304219019,-0.110047931184695,-31.4320908083578,5.41493289503731E-10,-1.51234124662423E-06,-1.73670528846788E-08,1082.58076637882,-58.1482093024172,1.08661769083945E-06,5.35503980122658E-08,1.05065327429767E-06,1.08661769108701E-06,1.51234010468709E-06,-2.90291948249695E-09,-1.72318111776845E-08,0.00237686392,3.737199857E-07,0.0001572323861,518.6675475,2116.228,2116.175407,0,0,0,0,0,0,0,0,0.05273832175,0,-0.01032494063,0,0.06369013378,0,-0.01032494063,0,0.1133088485,0.1342341375,4.318855716,8.7401574936,0,1.8110236248,0.68772317841649,0.68772317841649,0.003885436856577,11.4034172262612,90.0007688716972,0.703606107182954,-0.070227265173949,0.070274036724595,0.703610785191606,-0.380420398311424,0.91702501720061,-0.062876427914517,0.101941126540419,-0.380421569082001,0.917025739296532,-0.062865895802589,0.101936757372833,0,0,44.725800999856,44.917901270458,-93.075866,-797412.141101336,-14845909.1268485,14725685.6884466,-797753.15383233,-14845890.8062457,14725685.6884466,0.001316093351656,0.68772317841649,0,6.33977327536152,-0.110074599531049,-31.4320988235883,7.86408647881716E-06,-5.1812193919142E-05,-5.0751402674491E-05,7.86408647881716E-06,-5.1812193919142E-05,-5.0751402674491E-05,0.783965270255234,-1.62448031584505,0.209618024781346,4.60961263908626E-07,-8.84809858265071E-10,-5.25225604695823E-09,101323.028692163,6.21624846767702E-14,14.9986374828821
0.34,-0.000182814674908,-1.26176674377482E-06,-3.6451660673328E-05,0.001056983420957,-9.66959287239334E-05,0.000159528919903,0.000398464831266,-0.002969906240226,-0.002918389825215,5.560008217E-15,0.01128323405,2.1629702964E-06,1084.14128693,1.13877003700212E-08,-2.16217465394176E-06,5.75464093692583E-08,1.68831987257641E-07,-1.15615969988048E-06,-2.44847451103907E-06,0.004239751484478,0.078942138350655,2.53903429076052E-06,6.33977237542631,-0.1099662144431,-31.4320935036661,1.13877003700212E-08,-2.16217465394176E-06,5.75464093692583E-08,1082.580851235,-58.1466299358414,1.49817879746359E-06,1.06211524571409E-07,1.55647676051431E-06,1.49817879780531E-06,2.16217824626744E-06,2.25407601510399E-08,5.40152725249809E-08,0.00237686392,3.737199857E-07,0.0001572323861,518.6675475,2116.228,2116.175407,0,0,0,0,0,0,0,0,0.05273832175,0,-0.01032494063,0,0.06369013378,0,-0.01032494063,0,0.1133088485,0.1342341375,4.318855716,8.7401574936,0,1.8110236248,0.68772318214178,0.68772318214178,0.003882092523948,11.403417217357,90.0007682186409,0.703606109148761,-0.070227285253389,0.070274016535397,0.703610783238203,-0.380420372016962,0.917025028233718,-0.062876425622163,0.10194112682982,-0.380421617120889,0.917025796171921,-0.062865224804367,0.101936480254743,0,0,44.725800999856,44.917901270458,-93.075866,-797390.48948516,-14845910.2897969,14725685.6884467,-797753.153832329,-14845890.8062457,14725685.6884467,0.001399654834301,0.68772318214178,0,6.33977242228691,-0.109976264665583,-31.4320807962743,6.95452325900147E-06,-5.18346423674689E-05,-5.09355113067077E-05,6.95452325900147E-06,-5.18346423674689E-05,-5.09355113067077E-05,0.783965270255236,-1.62448031584505,0.209618025916815,6.59031929462316E-07,6.87042369403697E-09,1.64638550656142E-08,101323.028692149,2.67144778641089E-13,14.9986374828747
0.36,-0.000141594923757,-7.99977763102445E-07,-2.84344126604667E-05,0.003555276863721,-5.21225139102124E-05,0.000724198829636,0.000439684616755,-0.002969444272034,-0.002910372754881,3.511590025E-15,0.008967012671,1.71895592806E-06,1084.14128693,1.58748310317529E-08,-1.71887727849676E-06,4.28647017887742E-09,-2.14221503879053E-07,4.17749870960799E-05,-2.65962589816208E-06,0.004237594569084,0.078911908002385,-2.7872442862148E-05,6.33977198062138,-0.10992132870822,-31.4320937240336,1.58748310317529E-08,-1.71887727849676E-06,4.28647017887742E-09,1082.58093601135,-58.1450514237945,1.22056465120417E-06,8.13264463975232E-08,1.20764954517479E-06,1.2205646514829E-06,1.71887734526234E-06,1.6408975263386E-08,9.4908839868118E-10,0.00237686392,3.737199857E-07,0.0001572323861,518.6675475,2116.228,2116.175407,0,0,0,0,0,0,0,0,0.05273832175,0,-0.01032494063,0,0.06369013378,0,-0.01032494063,0,0.1133088485,0.1342341375,4.318855716,8.7401574936,0,1.8110236248,0.68772318214178,0.68772318214178,0.003878529616069,11.4034171934908,90.0007675188929,0.703606111276478,-0.070227306554403,0.070273994940858,0.703610781141326,-0.380420344014711,0.917025040000229,-0.062876423100093,0.101941127036539,-0.380421663451786,0.917025853780218,-0.062864553576371,0.101936203053977,0,0,44.725800999856,44.917901270458,-93.075866,-797368.837867288,-14845911.4527137,14725685.6884467,-797753.153832327,-14845890.8062457,14725685.6884467,0.001483216316945,0.68772318214178,0,6.33977212299029,-0.109934812436358,-31.4320846305627,7.67394423273872E-06,-5.1826579501478E-05,-5.07955870330053E-05,7.67394423273872E-06,-5.1826579501478E-05,-5.07955870330053E-05,0.783965270255238,-1.62448031584505,0.209618025916815,5.2391381483596E-07,5.00145566028004E-09,2.89282143918024E-10,101323.028692149,2.00009998903316E-13,14.9986374828747
0.38,-7.04338709943889E-05,-8.23570049718925E-07,-1.43065636048543E-05,0.002865786168664,0.000197451824513,0.000587716734611,0.000510845692649,-0.002969467743722,-0.002896245025387,9.123888538E-16,0.004570733137,8.76199143355E-07,1084.14128691,-6.83758539413573E-10,-8.76155630902066E-07,8.70527013387289E-09,-5.91857099664226E-08,3.74375384172981E-05,-2.75689447685949E-06,0.004237771006442,0.078914865377695,-2.47018856719822E-05,6.33977212734159,-0.109924350836275,-31.4320938275902,-6.83758539413573E-10,-8.76155630902066E-07,8.70527013387289E-09,1082.58102076343,-58.1434731487188,6.16434443027337E-07,3.44613847914913E-08,6.21728179532535E-07,6.16434443168269E-07,8.76156203929149E-07,1.05091912394734E-09,8.6105096376055E-09,0.00237686392,3.737199857E-07,0.0001572323861,518.6675475,2116.228,2116.175407,0,0,0,0,0,0,0,0,0.05273832175,0,-0.01032494063,0,0.06369013378,0,-0.01032494063,0,0.1133088485,0.1342341375,4.318855716,8.7401574936,0,1.8110236248,0.68772318214178,0.68772318214178,0.003876131994805,11.4034171765902,90.0007670466659,0.703606112717054,-0.070227320882716,0.070273980404703,0.703610779722563,-0.380420325172314,0.917025047918981,-0.062876421389374,0.101941127173421,-0.380421718942334,0.917025907540276,-0.062863883159728,0.101935925783236,0,0,44.725800999856,44.917901270458,-93.075866,-797347.18624772,-14845912.615599,14725685.6884467,-797753.153832326,-14845890.8062456,14725685.6884467,0.00156677779959,0.68772318214178,0,6.33977177490307,-0.109922372283624,-31.4320984326115,8.91593930636363E-06,-5.18269891597205E-05,-5.05490116375047E-05,8.91593930636363E-06,-5.18269891597205E-05,-5.05490116375047E-05,0.783965270255239,-1.62448031584505,0.209618025916815,2.67052410957605E-07,3.2032014897915E-10,2.62448333754216E-09,101323.028692149,6.55432173692008E-14,14.9986374828747
0.4,-1.42534124377369E-05,-5.24267670114473E-08,-2.97312540259431E-06,0.001937751662099,6.16525752394589E-06,0.00040011071194,0.000567026161102,-0.002968696549872,-0.002884911637278,4.787194923E-17,0.001046975299,2.00702782886E-07,1084.14128691,-7.11988079258071E-09,-1.95126806018867E-07,4.64375271574449E-08,1.26992631449542E-06,2.745041301494E-05,-8.26128914915746E-06,0.004238031508267,0.078917862784486,-1.36240152081163E-05,6.33977345428519,-0.109933786440194,-31.432099334357,-7.11988079258071E-09,-1.95126806018867E-07,4.64375271574449E-08,1082.58110553696,-58.1418947390412,1.05621224683363E-07,1.13556261092633E-08,1.70284508145309E-07,1.05621224707539E-07,1.95129916882202E-07,2.2021053919566E-09,4.69155980110146E-08,0.00237686392,3.737199857E-07,0.0001572323861,518.6675475,2116.228,2116.175407,0,0,0,0,0,0,0,0,0.05273832175,0,-0.01032494063,0,0.06369013378,0,-0.01032494063,0,0.1133088485,0.1342341375,4.318855716,8.7401574936,0,1.8110236248,0.68772317841649,0.68772317841649,0.003875126656811,11.4034171718486,90.0007668471117,0.703606113329182,-0.070227326904116,0.070273974324942,0.703610779116762,-0.380420317271408,0.91702505123712,-0.062876420667457,0.101941127254771,-0.380421785374169,0.917025956699246,-0.062863213731907,0.101935648456778,0,0,44.725800999856,44.917901270458,-93.075866,-797325.534626457,-14845913.7784527,14725685.6884467,-797753.153832325,-14845890.8062456,14725685.6884467,0.001650339282235,0.68772317841649,0,6.3397720118485,-0.109932384817709,-31.4320894847932,9.89647345617385E-06,-5.1813529287865E-05,-5.03512066996019E-05,9.89647345617385E-06,-5.1813529287865E-05,-5.03512066996019E-05,0.78396527025524,-1.62448031584505,0.209618024781346,5.94755986656952E-08,6.71201723468371E-10,1.42998742737573E-08,101323.028692163,6.04107429332271E-15,14.9986374828821
0.42,1.64012314592071E-05,6.11797733067801E-07,3.13520380561487E-06,0.000502094439395,-0.000155414744161,0.000150922688801,0.00059768080538,-0.002968032324261,-0.002878803309139,3.541546319E-17,0.0009005178861,1.72627229988E-07,1084.1412869,-8.56203171326652E-09,1.70937682865958E-07,-2.25202291897108E-08,-2.6290984095786E-07,1.27027767715532E-05,1.6303981145359E-05,0.004242751627373,0.078945351758476,-2.03031920743974E-05,6.33977192259226,-0.109948521948615,-31.4320747689044,-8.56203171326652E-09,1.70937682865958E-07,-2.25202291897108E-08,1082.58119029988,-58.1403161819637,-1.07113505295498E-07,-2.00584097765184E-08,-1.33882477253441E-07,-1.07113505320044E-07,-1.70939033702827E-07,-1.28456191892495E-08,-2.03714841044114E-08,0.00237686392,3.737199857E-07,0.0001572323861,518.6675475,2116.228,2116.175407,0,0,0,0,0,0,0,0,0.05273832175,0,-0.01032494063,0,0.06369013378,0,-0.01032494063,0,0.1133088485,0.1342341375,4.318855716,8.7401574936,0,1.8110236248,0.68772318214178,0.68772318214178,0.003875104552124,11.4034171738342,90.0007668415761,0.703606113348456,-0.070227327048634,0.070273974204795,0.703610779095159,-0.38042031709739,0.917025051308125,-0.062876420649343,0.101941127277124,-0.38042185953269,0.917026002610603,-0.0628625450079,0.101935371071165,0,0,44.725800999856,44.917901270458,-93.075866,-797303.883003499,-14845914.9412748,14725685.6884467,-797753.153832325,-14845890.8062456,14725685.6884467,0.00173390076488,0.68772318214178,0,6.33977212848983,-0.10994971563973,-31.4320992363964,1.0431497929848E-05,-5.18019363639679E-05,-5.02445962617783E-05,1.0431497929848E-05,-5.18019363639679E-05,-5.02445962617783E-05,0.78396527025524,-1.62448031584505,0.209618025916815,-5.21022174726218E-08,-3.91534472888325E-09,-6.20922835502461E-09,101323.028692149,1.12333426054713E-15,14.9986374828747
0.44,2.40187786287779E-05,-4.12347323014942E-08,4.75995311780708E-06,-0.000139092208786,6.33900891840889E-05,-1.38342061961111E-05,0.000605298348615,-0.002968685377362,-0.002877178539364,9.542609924E-17,0.001478187297,2.83365141797E-07,1084.1412869,-1.30357399875973E-08,2.81316461909888E-07,3.14153040308142E-08,1.93707610778258E-06,7.51605832488567E-07,-6.30850793636586E-06,0.004239915344393,0.078937843979149,4.09211663375542E-06,6.3397741238188,-0.10996069818155,-31.4320973803596,-1.30357399875973E-08,2.81316461909888E-07,3.14153040308142E-08,1082.58127509606,-58.1387373603497,-2.23366752335092E-07,-1.59071132878334E-08,-1.73637729999906E-07,-2.23366752386337E-07,-2.81314248473834E-07,-6.56710764744011E-09,3.33911710941794E-08,0.00237686392,3.737199857E-07,0.0001572323861,518.6675475,2116.228,2116.175407,0,0,0,0,0,0,0,0,0.05273832175,0,-0.01032494063,0,0.06369013378,0,-0.01032494063,0,0.1133088485,0.1342341375,4.318855716,8.7401574936,0,1.8110236248,0.68772317841649,0.68772317841649,0.003875514803294,11.4034171763549,90.0007669215408,0.703606113107385,-0.070227324594154,0.07027397669027,0.703610779333065,-0.380420320322305,0.917025049953449,-0.06287642093415,0.101941127253524,-0.380421937089941,0.917026047095796,-0.062861876586804,0.101935093639489,0,0,44.725800999856,44.917901270458,-93.075866,-797282.231378844,-14845916.1040653,14725685.6884467,-797753.153832325,-14845890.8062456,14725685.6884467,0.001817462247525,0.68772317841649,0,6.33977138403327,-0.109958919915599,-31.4320934116491,1.05644491402123E-05,-5.18133342907731E-05,-5.0216238679628E-05,1.05644491402123E-05,-5.18133342907731E-05,-5.0216238679628E-05,0.78396527025524,-1.62448031584505,0.209618024781346,-8.57445829348245E-08,-2.00165441093975E-09,1.01776289495059E-08,101323.028692163,4.61207885987878E-15,14.9986374828821
0.46,1.94270733050726E-05,6.62565471665079E-07,3.82796180978027E-06,-0.000437214828358,8.79280434582142E-05,-5.89295929240525E-05,0.000600706638736,-0.002967981601323,-0.0028781105067,6.317639861E-17,0.001202744315,2.30563348747E-07,1084.1412869,-1.07112897892293E-08,2.29090943946142E-07,-2.37079197398408E-08,5.4040274328076E-08,-3.16885421010327E-06,1.71195186870335E-06,0.004240002187512,0.078946461224415,1.08341797812328E-06,6.339772243153,-0.109964882192407,-31.432089358505,-1.07112897892293E-08,2.29090943946142E-07,-2.37079197398408E-08,1082.58135987707,-58.1371585003624,-1.47912881073054E-07,-2.4620603092169E-08,-1.75142979601467E-07,-1.47912881107028E-07,-2.29092343970885E-07,-1.51872754614869E-08,-2.11069276700012E-08,0.00237686392,3.737199857E-07,0.0001572323861,518.6675475,2116.228,2116.175407,0,0,0,0,0,0,0,0,0.05273832175,0,-0.01032494063,0,0.06369013378,0,-0.01032494063,0,0.1133088485,0.1342341375,4.318855716,8.7401574936,0,1.8110236248,0.68772318214178,0.68772318214178,0.003875995216455,11.4034171809917,90.0007670158129,0.703606112820166,-0.070227321730637,0.070273979610776,0.703610779614495,-0.380420324097372,0.917025048365661,-0.062876421278319,0.101941127237251,-0.380422015197142,0.917026091347392,-0.062861208225043,0.101934816215074,0,0,44.725800999856,44.917901270458,-93.075866,-797260.579752495,-14845917.2668243,14725685.6884467,-797753.153832326,-14845890.8062456,14725685.6884467,0.001901023730169,0.68772318214178,0,6.33977192969683,-0.109966766683637,-31.4320993450694,1.04843086845375E-05,-5.18010510816942E-05,-5.02325045781556E-05,1.04843086845375E-05,-5.18010510816942E-05,-5.02325045781556E-05,0.783965270255239,-1.62448031584505,0.209618025916815,-6.98273464423257E-08,-4.62908156066119E-09,-6.43339155381637E-09,101323.028692149,3.93966362933416E-15,14.9986374828747
0.48,8.59355636718248E-06,6.80969151242716E-07,1.80951705529327E-06,-0.000565429503076,-0.000232400187972,-0.000134194733664,0.000589873119347,-0.002967963214178,-0.002880128934917,1.504925134E-17,0.0005870205808,1.12530509802E-07,1084.14128691,-1.71231072718898E-09,1.12495072772458E-07,2.24549108786629E-09,3.99200793909129E-07,-8.56458474149391E-06,5.11022968955811E-06,0.00424122374254,0.07895251965596,2.62121662769621E-06,6.33977259711783,-0.109970458262362,-31.4320859578234,-1.71231072718898E-09,1.12495072772458E-07,2.24549108786629E-09,1082.58144468372,-58.1355795407793,-8.17181626977174E-08,-5.38347125269205E-09,-7.71769120835653E-08,-8.17181627165088E-08,-1.12494904091973E-07,-1.23454090223724E-09,2.54717516934328E-09,0.00237686392,3.737199857E-07,0.0001572323861,518.6675475,2116.228,2116.175407,0,0,0,0,0,0,0,0,0.05273832175,0,-0.01032494063,0,0.06369013378,0,-0.01032494063,0,0.1133088485,0.1342341375,4.318855716,8.7401574936,0,1.8110236248,0.68772318214178,0.68772318214178,0.003876323944164,11.4034171972838,90.0007670802077,0.703606112616296,-0.070227319851732,0.070273981689783,0.703610779798349,-0.380420326673392,0.917025047267532,-0.06287642155648,0.101941127331478,-0.380422092105095,0.917026136088158,-0.062860539797233,0.101934538901118,0,0,44.725800999856,44.917901270458,-93.075866,-797238.928124449,-14845918.4295516,14725685.6884467,-797753.153832326,-14845890.8062456,14725685.6884467,0.001984585212814,0.68772318214178,0,6.33977338256446,-0.109967127974015,-31.4320891186086,1.02952281016216E-05,-5.18007301654844E-05,-5.02677327962576E-05,1.02952281016216E-05,-5.18007301654844E-05,-5.02677327962576E-05,0.783965270255239,-1.62448031584505,0.209618025916815,-3.42884467672333E-08,-3.76288067001911E-10,7.76378991615832E-10,101323.028692149,1.09616122785645E-15,14.9986374828747
0.5,2.1957675620807E-06,-6.50059196366591E-07,4.66984532845658E-07,-9.6624462860363E-05,-2.65963489359708E-05,-2.44915871226296E-05,0.000583475329144,-0.002969294247644,-0.002881471462451,1.081052254E-18,0.0001573327825,3.01603364508E-08,1084.14128692,1.0687962803725E-08,2.81439030544496E-08,-1.82594271442136E-09,2.27977194860447E-07,-1.44209920355243E-06,-1.85566806988833E-06,0.004239038079988,0.078942783268675,2.34158055120726E-06,6.3397724220126,-0.10996339158995,-31.4320929243121,1.0687962803725E-08,2.81439030544496E-08,-1.82594271442136E-09,1082.58152948311,-58.1340006249492,-1.72505999418768E-08,8.88993209999602E-09,-2.30874815387819E-08,-1.72505999458483E-08,-2.81441619699389E-08,1.01159577737631E-08,-3.90121011573562E-09,0.00237686392,3.737199857E-07,0.0001572323861,518.6675475,2116.228,2116.175407,0,0,0,0,0,0,0,0,0.05273832175,0,-0.01032494063,0,0.06369013378,0,-0.01032494063,0,0.1133088485,0.1342341375,4.318855716,8.7401574936,0,1.8110236248,0.68772317841649,0.68772317841649,0.003876425680126,11.4034171902926,90.0007671008059,0.7036061125565,-0.07022731919676,0.070273982258903,0.70361077986677,-0.380420327476781,0.917025046938492,-0.062876421608011,0.101941127262076,-0.380422167240212,0.917026181597521,-0.062859871142748,0.101934261423508,0,0,44.725800999856,44.917901270458,-93.075866,-797217.276494707,-14845919.5922474,14725685.6884467,-797753.153832326,-14845890.8062456,14725685.6884467,0.002068146695459,0.68772317841649,0,6.33977280468634,-0.109964108711954,-31.4320910950546,1.01835655977255E-05,-5.18239610819077E-05,-5.02911643220174E-05,1.01835655977255E-05,-5.18239610819077E-05,-5.02911643220174E-05,0.783965270255239,-1.62448031584505,0.209618024781346,-8.57834056843739E-09,3.08334392944298E-09,-1.18908884327622E-09,101323.028692163,1.04978874292325E-16,14.9986374828821
0.52,-1.89887743094505E-06,-3.79510417058191E-07,-3.87013953644933E-07,-0.000165014666646,3.43562384802766E-05,-2.9302383124104E-05,0.00057938068339,-0.002969023700181,-0.002882325459735,1.352428855E-18,0.0001759758591,3.37341718281E-08,1084.14128691,-4.02902254936584E-09,-1.96313802086734E-08,2.71361426390082E-08,-2.29102869829302E-07,-2.62277186326154E-06,2.22589524989936E-06,0.004239481780999,0.078946502654736,3.01529788748756E-07,6.33977195946584,-0.10996458661337,-31.4320888438064,-4.02902254936584E-09,-1.96313802086734E-08,2.71361426390082E-08,1082.58161426023,-58.1324217068416,-5.3297518656093E-09,3.19948329279978E-09,3.31564684621978E-08,-5.32975186683773E-09,1.96331971588128E-08,1.41575734931056E-09,2.73957578766994E-08,0.00237686392,3.737199857E-07,0.0001572323861,518.6675475,2116.228,2116.175407,0,0,0,0,0,0,0,0,0.05273832175,0,-0.01032494063,0,0.06369013378,0,-0.01032494063,0,0.1133088485,0.1342341375,4.318855716,8.7401574936,0,1.8110236248,0.68772318214178,0.68772318214178,0.003876451840387,11.4034171803595,90.0007671059463,0.703606112547105,-0.07022731897829,0.070273982355387,0.703610779888429,-0.380420327687964,0.917025046861134,-0.062876421593028,0.101941127179636,-0.380422241782921,0.917026227358079,-0.062859202421711,0.101933983932816,0,0,44.725800999856,44.917901270458,-93.075866,-797195.62486327,-14845920.7549117,14725685.6884467,-797753.153832326,-14845890.8062456,14725685.6884467,0.002151708178104,0.68772318214178,0,6.33977145617263,-0.109964484854876,-31.4320907030469,1.0112100547616E-05,-5.18192391378947E-05,-5.03060693864421E-05,1.0112100547616E-05,-5.18192391378947E-05,-5.03060693864421E-05,0.783965270255239,-1.62448031584505,0.209618025916815,5.98419849400615E-09,4.31522840069859E-10,8.35022700081798E-09,101323.028692149,1.09390688487356E-16,14.9986374828747
0.54,-3.91199383698597E-06,-2.48686641613563E-09,-8.07277349236664E-07,0.000175739343173,0.000154851232355,4.66633203484144E-05,0.000577367567476,-0.002968646674142,-0.002882745725595,3.093403054E-18,0.0002661424405,5.10189003476E-08,1084.14128691,-1.08441358826705E-08,-4.35455294780428E-08,2.42717896354693E-08,2.57637602173532E-07,1.57022092860115E-06,-4.74955634412447E-06,0.004238043539783,0.078938691253327,2.20151423845072E-06,6.33977244626491,-0.109960366479083,-31.4320958193462,-1.08441358826705E-08,-4.35455294780428E-08,2.42717896354693E-08,1082.58169903435,-58.1308428286984,1.26895557545434E-08,-3.1897204633793E-09,4.93125648422138E-08,1.26895557574715E-08,4.35472495891176E-08,-5.83114902977898E-09,2.59338186060137E-08,0.00237686392,3.737199857E-07,0.0001572323861,518.6675475,2116.228,2116.175407,0,0,0,0,0,0,0,0,0.05273832175,0,-0.01032494063,0,0.06369013378,0,-0.01032494063,0,0.1133088485,0.1342341375,4.318855716,8.7401574936,0,1.8110236248,0.68772318214178,0.68772318214178,0.00387640236663,11.4034171804383,90.0007670963289,0.703606112575838,-0.070227319276645,0.070273982057983,0.703610779859717,-0.380420327298869,0.917025047024211,-0.062876421560193,0.101941127185436,-0.380422315725151,0.917026273358583,-0.062858533682784,0.101933706530321,0,0,44.725800999856,44.917901270458,-93.075866,-797173.973230137,-14845921.9175443,14725685.6884467,-797753.153832326,-14845890.8062456,14725685.6884467,0.002235269660749,0.68772318214178,0,6.33977150968369,-0.109963055159416,-31.4320928373694,1.00769650466948E-05,-5.18126587921532E-05,-5.0313404409434E-05,1.00769650466948E-05,-5.18126587921532E-05,-5.0313404409434E-05,0.783965270255239,-1.62448031584505,0.209618025916815,1.32732016747631E-08,-1.77733422427663E-09,7.90462791111298E-09,101323.028692149,3.31261989385229E-16,14.9986374828747
0.56,-4.13880727558937E-06,3.54350573553694E-07,-8.45950284890477E-07,0.000144862052,-0.000101736408817,4.87780645469269E-05,0.000577140755243,-0.00296828983352,-0.002882784401566,4.100876016E-18,0.0003064320593,5.8742328592E-08,1084.1412869,-1.32042121636056E-08,-4.86628204572875E-08,3.01370180126629E-08,3.14927125396368E-06,2.03228441447711E-06,-6.67461148858394E-06,0.004240267714323,0.078936496663126,3.60337090443696E-06,6.33977534415333,-0.109959869709801,-31.4320977432657,-1.32042121636056E-08,-4.86628204572875E-08,3.01370180126629E-08,1082.58178381183,-58.1292639585194,1.1951494313552E-08,-3.91168819334828E-09,5.73804988501982E-08,1.1951494316313E-08,4.86649527888166E-08,-6.9849875362614E-09,3.21495488054336E-08,0.00237686392,3.737199857E-07,0.0001572323861,518.6675475,2116.228,2116.175407,0,0,0,0,0,0,0,0,0.05273832175,0,-0.01032494063,0,0.06369013378,0,-0.01032494063,0,0.1133088485,0.1342341375,4.318855716,8.7401574936,0,1.8110236248,0.68772317841649,0.68772317841649,0.003876339103366,11.4034171918002,90.0007670838521,0.703606112606761,-0.070227319727198,0.070273981746941,0.703610779814984,-0.380420326795262,0.917025047222691,-0.062876421554143,0.101941127283581,-0.380422389552668,0.917026319394002,-0.062857864970607,0.101933429220119,0,0,44.725800999856,44.917901270458,-93.075866,-797152.321595309,-14845923.0801454,14725685.6884467,-797753.153832326,-14845890.8062456,14725685.6884467,0.002318831143393,0.68772317841649,0,6.33977189911449,-0.109963021642145,-31.4320907940531,1.00730064264342E-05,-5.18064307484003E-05,-5.03140794324665E-05,1.00730064264342E-05,-5.18064307484003E-05,-5.03140794324665E-05,0.783965270255239,-1.62448031584505,0.209618024781346,1.48330776100313E-08,-2.12902420105247E-09,9.79918247589618E-09,101323.028692163,2.4970174760247E-16,14.9986374828821
0.58,-1.58837640624036E-06,-6.4807765146864E-07,-3.32220565339599E-07,2.50725680002261E-05,-1.13254068517166E-05,7.44460414019858E-06,0.000579691186508,-0.002969292258652,-0.002882270674954,7.974398418E-19,0.0001351278433,2.59037001213E-08,1084.14128692,9.41516219342868E-09,-2.20272828329015E-08,-9.85673433988372E-09,4.01662516271181E-07,8.22732821134653E-07,-7.99678118514997E-07,0.004238908722531,0.078941906330405,2.81419286207729E-08,6.33977259427125,-0.109961045523328,-31.4320918689118,9.41516219342868E-09,-2.20272828329015E-08,-9.85673433988372E-09,1082.58186859931,-58.1276851467539,2.37598723559084E-08,7.66232789024765E-09,6.91077975365857E-09,2.37598723614037E-08,2.20265184705118E-08,7.28046919025808E-09,-1.1525143494523E-08,0.00237686392,3.737199857E-07,0.0001572323861,518.6675475,2116.228,2116.175407,0,0,0,0,0,0,0,0,0.05273832175,0,-0.01032494063,0,0.06369013378,0,-0.01032494063,0,0.1133088485,0.1342341375,4.318855716,8.7401574936,0,1.8110236248,0.68772317841649,0.68772317841649,0.003876277601009,11.403417187604,90.0007670718925,0.703606112645123,-0.070227320071725,0.070273981350866,0.703610779781889,-0.380420326313917,0.917025047429225,-0.062876421499033,0.101941127256444,-0.380422463402243,0.917026365436989,-0.062857196209337,0.101933151784582,0,0,44.725800999856,44.917901270458,-93.075866,-797130.669958784,-14845924.2427149,14725685.6884467,-797753.153832326,-14845890.8062456,14725685.6884467,0.002402392626038,0.68772317841649,0,6.33977232202068,-0.109961353407602,-31.4320903064188,1.01175198493619E-05,-5.1823926367457E-05,-5.03051132116238E-05,1.01175198493619E-05,-5.1823926367457E-05,-5.03051132116238E-05,0.783965270255239,-1.62448031584505,0.209618024781346,6.713682829812E-09,2.21908700919066E-09,-3.5128637371306E-09,101323.028692163,5.25698073907636E-17,14.9986374828821
0.6,-9.02875159400286E-07,-3.74126391575978E-07,-2.14390136277722E-07,-1.18534575028534E-05,-4.39999672990633E-07,1.136852754424E-05,0.000580376687279,-0.002969018305989,-0.002882152846067,3.52076898E-19,8.978724472E-05,1.72120105366E-08,1084.14128691,3.43764282929666E-09,-1.29113957174654E-08,-1.08504276006238E-08,8.04538559547785E-07,5.04573653636875E-07,-6.58352518733227E-07,0.004239230095766,0.078942155166258,2.12776851582497E-07,6.33977298885759,-0.109961348373123,-31.4320917293167,3.43764282929666E-09,-1.29113957174654E-08,-1.08504276006238E-08,1082.58195336653,-58.1261062903287,1.71365642517509E-08,1.27879197862595E-09,9.77836062329936E-10,1.71365642557189E-08,1.29106452298423E-08,1.22448077097753E-09,-1.1316766029676E-08,0.00237686392,3.737199857E-07,0.0001572323861,518.6675475,2116.228,2116.175407,0,0,0,0,0,0,0,0,0.05273832175,0,-0.01032494063,0,0.06369013378,0,-0.01032494063,0,0.1133088485,0.1342341375,4.318855716,8.7401574936,0,1.8110236248,0.68772317841649,0.68772317841649,0.003876249694931,11.4034171724728,90.0007670662814,0.703606112671795,-0.070227320146718,0.070273981090046,0.703610779773877,-0.38042032610292,0.917025047534707,-0.062876421428659,0.101941127138887,-0.380422537521961,0.917026411378433,-0.062856527432772,0.101932874258566,0,0,44.725800999856,44.917901270458,-93.075866,-797109.018320564,-14845925.4052528,14725685.6884467,-797753.153832326,-14845890.8062456,14725685.6884467,0.002485954108683,0.68772317841649,0,6.33977114944895,-0.109961702355181,-31.4320917158707,1.01294840948312E-05,-5.18191449914908E-05,-5.03030567095966E-05,1.01294840948312E-05,-5.18191449914908E-05,-5.03030567095966E-05,0.783965270255239,-1.62448031584505,0.209618024781346,3.93516466605593E-09,3.73221738993949E-10,-3.44935028584526E-09,101323.028692163,3.58047042067448E-17,14.9986374828821
0.62,-5.96080608166195E-07,-3.34560151651576E-07,-1.5678510090579E-07,-1.88203495815608E-05,0.000114012342972,5.38881611344015E-06,0.00058068348144,-0.002968978738867,-0.00288209524202,2.487463951E-19,7.546998747E-05,1.44674248939E-08,1084.14128691,2.27989645063647E-09,-9.52755473895314E-09,-1.06458515831885E-08,-5.85223305905094E-07,2.86811259256336E-07,-8.94719059390408E-08,0.0042379068376,0.078942971977423,-2.18243463287471E-07,6.33977159293417,-0.109961556511975,-31.432091161717,2.27989645063647E-09,-9.52755473895314E-09,-1.06458515831885E-08,1082.58203813662,-58.124527429861,1.44300613836792E-08,7.45320860363455E-11,-1.03641518902062E-09,1.44300613870243E-08,9.52683275419122E-09,1.30036892746413E-10,-1.08870993009785E-08,0.00237686392,3.737199857E-07,0.0001572323861,518.6675475,2116.228,2116.175407,0,0,0,0,0,0,0,0,0.05273832175,0,-0.01032494063,0,0.06369013378,0,-0.01032494063,0,0.1133088485,0.1342341375,4.318855716,8.7401574936,0,1.8110236248,0.68772317841649,0.68772317841649,0.003876232152355,11.4034171612295,90.0007670628097,0.703606112689299,-0.070227320183261,0.070273980915419,0.703610779770262,-0.380420325971205,0.91702504760258,-0.062876421379131,0.101941127050936,-0.380422611720759,0.917026457281781,-0.062855858677019,0.101932596762099,0,0,44.725800999856,44.917901270458,-93.075866,-797087.366680649,-14845926.5677591,14725685.6884467,-797753.153832325,-14845890.8062456,14725685.6884467,0.002569515591328,0.68772317841649,0,6.33977103562849,-0.109961992656388,-31.4320914318279,1.01348386630797E-05,-5.18184544149385E-05,-5.03020513293049E-05,1.01348386630797E-05,-5.18184544149385E-05,-5.03020513293049E-05,0.783965270255239,-1.62448031584505,0.209618024781346,2.90377862347749E-09,3.96352449091067E-11,-3.31838786693823E-09,101323.028692163,3.02938626489431E-17,14.9986374828821
